[
  {
    "name": "Centro de Profesores y recursos",
    "address": {
      "city": "Murcia",
      "province": "Región de Murcia"
    },
    "image": "images/centros/cprmurcia.jpg",
    "coordinates": ["37.9914646","-1.1290893"],
    "social": {
      "url": "https://www.murciaeduca.es/cprregiondemurcia/sitio/",
      "twitter": "https://twitter.com/CPRRegionMurcia"
    },
    "ambassadors": [
      {
        "name": "Eva María"
      }
    ]
  },
  {
    "name": "Centro Aragonés de Tecnologías para la Educación",
    "address": {
      "city": "Alcorisa",
      "province": "Aragón"
    },
    "image": "images/centros/catedu.jpg",
    "coordinates": ["40.8969747","-0.3859592"],
    "social": {
      "url": "http://web.catedu.es/webcatedu/",
      "twitter": "https://twitter.com/catedu_es"
    },
    "ambassadors": [
      {
        "name": "Javier"
      }
    ]
  },



  {
    "name": "IES Salvador de Madariaga",
    "address": {
      "city": "A Coruña",
      "province": "La Coruña"
    },
    "image": "images/centros/ies-salvador-madariaga.jpg",
    "coordinates": ["43.3700571","-8.4206792"],
    "social": {
      "url": "http://www.edu.xunta.gal/centros/iessalvadormadariaga/",
      "twitter": ""
    },
    "ambassadors": [
      {
        "name": "Julio"
      }
    ]
  },



  {
    "name": "CC Sant Vicenç de Paül (Sóller) - FECIB",
    "address": {
      "city": "Sóller",
      "province": "Illes Balears"
    },
    "image": "images/centros/fecib.jpg",
    "coordinates": ["39.7657891","2.7113723"],
    "social": {
      "url": "http://www.svpsoller.fecib.net",
      "twitter": ""
    },
    "ambassadors": [
      {
        "name": "Tolo Piza"
      }
    ]
  },



  {
    "name": "CEIP Francisco Villaespesa",
    "address": {
      "city": "El Parador, Roquetas de Mar",
      "province": "Almería"
    },
    "image": "images/centros/ceip-francisco-villaespesa.jpg",
    "coordinates": ["36.8067133","-2.5999698"],
    "social": {
      "url": "http://www.ceipvillaespesa.es/",
      "twitter": ""
    },
    "ambassadors": [
      {
        "name": "José Sánchez"
      }
    ]
  },
  {
    "name": "CEIP San Miguel",
    "address": {
      "city": "Nerja",
      "province": "Málaga"
    },
    "image": "images/centros/ceip-san-miguel.jpg",
    "coordinates": ["36.7466588","-3.8816852"],
    "social": {
      "url": "http://www.ceipsanmiguelnerja.com",
      "twitter": "https://twitter.com/CEIPSanmiguel18"
    },
    "ambassadors": [
      {
        "name": "David Sánchez"
      }
    ]
  },



  {
    "name": "CEIP San Isidro",
    "address": {
      "city": "Los Belones",
      "province": "Murcia"
    },
    "image": "https://pbs.twimg.com/profile_images/1210231414/logo_400x400.png",
    "coordinates": ["37.6235489","-0.7813239"],
    "social": {
      "url": "http://www.ceipsanisidro.com",
      "twitter": "https://twitter.com/ceipsanisidro"
    },
    "ambassadors": [
      {
        "name": "Anibal Parra"
      }
    ]
  },
  {
    "name": "Colegio Reina Sofía",
    "address": {
      "city": "Totana",
      "province": "Murcia"
    },
    "image": "https://pbs.twimg.com/profile_images/3675568430/dc5bbfb7e6400c2a1b4498016ee28fcd_400x400.jpeg",
    "coordinates": ["37.7773581","-1.4985646"],
    "social": {
      "url": "http://www.rsofia.es/",
      "twitter": "https://twitter.com/CReinaSofia"
    },
    "ambassadors": [
      {
        "name": "Francisco Román"
      }
    ]
  },

  {
    "name": "IES Alfonso X El Sabio",
    "address": {
      "city": "Murcia",
      "province": "Murcia"
    },
    "image": "https://pbs.twimg.com/profile_images/965879059870900224/USpYHGCQ_400x400.jpg",
    "coordinates": ["37.9950942","-1.1280427"],
    "social": {
      "url": "https://www.iax.es",
      "twitter": "https://twitter.com/iaxmurcia"
    },
    "ambassadors": [
      {
        "name": "Matías"
      }
    ]
  },
  {
    "name": "IES Florida Blanca",
    "address": {
      "city": "Murcia",
      "province": "Murcia"
    },
    "image": "https://pbs.twimg.com/profile_images/1092767612373815296/JB9IeQ_J_400x400.jpg",
    "coordinates": ["37.979799","-1.120516"],
    "social": {
      "url": "http://www.iesfloridablanca.com",
      "twitter": "https://twitter.com/iesflori"
    },
    "ambassadors": [
      {
        "name": "José Antonio"
      }
    ]
  },
  {
    "name": "IES Juan Carlos I",
    "address": {
      "city": "Murcia",
      "province": "Murcia"
    },
    "image": "https://pbs.twimg.com/profile_images/1021662639615877120/HusEihru_400x400.jpg",
    "coordinates": ["37.9989132","-1.1380948"],
    "social": {
      "url": "http://www.iesjuancarlosi.es",
      "twitter": "https://twitter.com/JuancarlosiIes"
    },
    "ambassadors": [
      {
        "name": "Agustín"
      }
    ]
  },
  {
    "name": "IES La Flota",
    "address": {
      "city": "Murcia",
      "province": "Murcia"
    },
    "image": "https://pbs.twimg.com/profile_images/956144408885329920/et6PX0j5_400x400.png",
    "coordinates": ["37.9967587","-1.1248994"],
    "social": {
      "url": "https://ieslaflota.blogspot.com",
      "twitter": "https://twitter.com/ieslaflota"
    },
    "ambassadors": [
      {
        "name": "José Antonio"
      }
    ]
  },
  {
    "name": "IES Miguel de Cervantes",
    "address": {
      "city": "Murcia",
      "province": "Murcia"
    },
    "image": "https://pbs.twimg.com/profile_images/915124237039480833/x7hfNtm5_400x400.jpg",
    "coordinates": ["37.9949282","-1.144677"],
    "social": {
      "url": "http://iesmigueldecervantes.com",
      "twitter": "https://twitter.com/IESMdCervantes"
    },
    "ambassadors": [
      {
        "name": "Mónica"
      }
    ]
  },
  {
    "name": "IES Antonio Hellín Costa",
    "address": {
      "city": "Puerto de Mazarrón",
      "province": "Murcia"
    },
    "image": "https://pbs.twimg.com/profile_images/1168176152999071746/t2voe93n_400x400.jpg",
    "coordinates": ["37.5694088","-1.2716645"],
    "social": {
      "url": "https://www.iesantoniohellin.es",
      "twitter": "https://twitter.com/ieshellincosta"
    },
    "ambassadors": [
      {
        "name": "José Antonio"
      }
    ]
  },
  {
    "name": "IES Ramón Arcas Meca",
    "address": {
      "city": "Lorca",
      "province": "Murcia"
    },
    "image": "https://pbs.twimg.com/profile_images/775381821429313536/chHoviwr_400x400.jpg",
    "coordinates": ["37.6765921","-1.6966465"],
    "social": {
      "url": "https://www.iesramonarcas.es",
      "twitter": "https://twitter.com/iesramonarcas"
    },
    "ambassadors": [
      {
        "name": "Lola Blázquez"
      }
    ]
  },
  {
    "name": "IES Príncipe Asturias",
    "address": {
      "city": "Lorca",
      "province": "Murcia"
    },
    "image": "https://pbs.twimg.com/profile_images/854999859648188417/YPoNx-aP_400x400.jpg",
    "coordinates": ["37.6793618","-1.6925855"],
    "social": {
      "url": "http://www.iesprincipe.com",
      "twitter": "https://twitter.com/iesprincipe"
    },
    "ambassadors": [
      {
        "name": "Antonio Manuel"
      }
    ]
  },



  {
    "name": "IES Monastil",
    "address": {
      "city": "Elda",
      "province": "Alicante"
    },
    "image": "https://pbs.twimg.com/profile_images/938844271490355202/y7dX2Sp3_400x400.jpg",
    "coordinates": ["38.4803587","-0.8066305"],
    "social": {
      "url": "",
      "twitter": "https://twitter.com/ies_monastil"
    },
    "ambassadors": [
      {
        "name": "Juan José"
      }
    ]
  },
  
  {
    "name": "IES Hermanos Amorós",
    "address": {
      "city": "Villena",
      "province": "Alicante"
    },
    "image": "https://pbs.twimg.com/profile_images/809897644654989312/RtOUC1LC_400x400.jpg",
    "coordinates": ["38.6438542","-0.8756787"],
    "social": {
      "url": "http://www.ieshermanosamoros.com",
      "twitter": "https://twitter.com/HermanosAmoros"
    },
    "ambassadors": [
      {
        "name": "Wladi"
      },
      {
        "name": "Encarni"
      }
    ]
  }
]