[
  {
    "name": "CEIP San Isidro",
    "address": {
      "city": "Los Belones",
      "province": "Murcia"
    },
    "image": "https://pbs.twimg.com/profile_images/1210231414/logo_400x400.png",
    "coordinates": ["37.6235489","-0.7813239"],
    "social": {
      "url": "http://www.ceipsanisidro.com",
      "twitter": "https://twitter.com/ceipsanisidro"
    },
    "teachers": [
      {
        "name": "Anibal Parra"
      }
    ]
  },
  {
    "name": "IES Hermanos Amorós",
    "address": {
      "city": "Villena",
      "province": "Alicante"
    },
    "image": "https://pbs.twimg.com/profile_images/809897644654989312/RtOUC1LC_400x400.jpg",
    "coordinates": ["38.6438542","-0.8756787"],
    "social": {
      "url": "http://www.ieshermanosamoros.com",
      "twitter": "https://twitter.com/HermanosAmoros"
    },
    "teachers": [
      {
        "name": "Wladi"
      },
      {
        "name": "Encarni"
      }
    ]
  },
  {
    "name": "CEIP San Miguel",
    "address": {
      "city": "Nerja",
      "province": "Málaga"
    },
    "image": "https://pbs.twimg.com/profile_images/1115196146299867137/05CXextj_400x400.png",
    "coordinates": ["36.7466588","-3.8816852"],
    "social": {
      "url": "http://www.ceipsanmiguelnerja.com",
      "twitter": ""
    },
    "teachers": [
      {
        "name": "David Sánchez"
      }
    ]
  },
  {
    "name": "CC Sant Vicenç de Paül (Sóller) - FECIB",
    "address": {
      "city": "Sóller",
      "province": "Illes Balears"
    },
    "image": "https://scontent.fmad8-1.fna.fbcdn.net/v/t1.0-9/10994068_758970267538017_167376538702352586_n.png?_nc_cat=102&_nc_oc=AQkfXElHo2GOfj5E7NIcV75rnlu2CsVrDFDhYY9UGPuZ3Fk8Uf6uqg6IsAeHid9r97c&_nc_ht=scontent.fmad8-1.fna&oh=f2b47cf06163d516cb7661fba3761d8d&oe=5DBBA44A",
    "coordinates": ["39.7657891","2.7113723"],
    "social": {
      "url": "svpsoller.fecib.net",
      "twitter": ""
    },
    "teachers": [
      {
        "name": "Tolo Piza"
      }
    ]
  }
]